City_ID,City,Country,Lat,Lng,Max Temp,Humidity,Cloudiness,Wind Speed,Current description
0,Longyearbyen,SJ,78.2186,15.6401,30.04,64,75,3.44,broken clouds
1,Kiama,AU,-34.6833,150.8667,68.38,92,30,1.99,scattered clouds
2,Pisco,PE,-13.7,-76.2167,66.25,77,40,9.22,mist
3,Port Elizabeth,ZA,-33.918,25.5701,61.32,83,20,3.44,few clouds
4,Busselton,AU,-33.65,115.3333,58.5,67,85,11.23,overcast clouds
5,Rikitea,PF,-23.1203,-134.9692,76.3,68,0,23.64,clear sky
6,Ushuaia,AR,-54.8,-68.3,44.22,87,20,6.91,few clouds
7,Port Alfred,ZA,-33.5906,26.891,57.18,89,45,1.01,scattered clouds
8,Hirara,JP,24.8,125.2833,78.17,85,100,13.13,light rain
9,Thompson,CA,55.7435,-97.8558,37.56,100,100,13.8,mist
10,Barrow,US,71.2906,-156.7887,19.47,98,92,10.92,overcast clouds
11,Svetlogorsk,BY,52.6333,29.7333,52.39,83,88,7.11,overcast clouds
12,Hobart,AU,-42.8794,147.3294,58.86,75,82,8.05,broken clouds
13,Kiruna,SE,67.8557,20.2251,40.12,93,100,4.61,light rain
14,Terme,TR,41.2092,36.9739,59.68,77,12,4.59,few clouds
15,Eirunepe,BR,-6.6603,-69.8736,87.55,65,100,2.77,overcast clouds
16,New Norfolk,AU,-42.7826,147.0587,58.5,73,80,7.0,broken clouds
17,Airai,TL,-8.9266,125.4092,61.75,96,77,0.94,broken clouds
18,Eslov,SE,55.8393,13.3039,56.26,67,34,17.09,scattered clouds
19,Jalu,LY,29.0331,21.5482,80.02,23,0,12.28,clear sky
20,Mataura,NZ,-46.1927,168.8643,43.48,91,100,2.37,overcast clouds
21,Sambava,MG,-14.2667,50.1667,76.82,70,0,16.82,clear sky
22,Comodoro Rivadavia,AR,-45.8667,-67.5,53.46,40,0,10.36,clear sky
23,Dingle,PH,10.9995,122.6711,78.51,86,84,1.57,broken clouds
24,Kapaa,US,22.0752,-159.319,73.38,93,79,1.99,light rain
25,Te Anau,NZ,-45.4167,167.7167,48.6,94,100,0.4,overcast clouds
26,Fortuna,US,40.5982,-124.1573,69.93,82,76,1.01,broken clouds
27,Dong Hoi,VN,17.4833,106.6,80.64,84,92,4.85,overcast clouds
28,Mayo,US,38.8876,-76.5119,70.16,94,100,5.75,light rain
29,Mar Del Plata,AR,-38.0023,-57.5575,61.95,42,0,9.22,clear sky
30,Chuy,UY,-33.6971,-53.4616,65.75,63,44,7.38,scattered clouds
31,Souillac,MU,-20.5167,57.5167,75.58,73,75,6.91,broken clouds
32,Chokurdakh,RU,70.6333,147.9167,6.98,97,99,3.94,overcast clouds
33,Bredasdorp,ZA,-34.5322,20.0403,56.73,72,67,3.89,broken clouds
34,Cape Town,ZA,-33.9258,18.4232,61.21,68,0,10.36,clear sky
35,Dikson,RU,73.5069,80.5464,32.07,96,100,10.27,overcast clouds
36,Alice Springs,AU,-23.7,133.8833,60.35,55,1,6.91,clear sky
37,Kushiro,JP,42.975,144.3747,47.16,64,100,20.87,overcast clouds
38,Hasaki,JP,35.7333,140.8333,64.8,79,100,22.24,overcast clouds
39,Sao Joao Da Barra,BR,-21.6403,-41.0511,80.69,70,27,12.28,scattered clouds
40,Jamestown,US,42.097,-79.2353,77.95,61,68,1.99,broken clouds
41,Hermanus,ZA,-34.4187,19.2345,54.81,74,6,5.68,clear sky
42,Albany,US,42.6001,-73.9662,81.91,58,83,4.0,broken clouds
43,Porto Nacional,BR,-10.7081,-48.4172,89.6,39,98,5.88,overcast clouds
44,Lata,PT,40.1629,-8.3327,69.82,43,68,11.83,broken clouds
45,Lubango,AO,-14.9172,13.4925,63.45,41,3,5.61,clear sky
46,Port Blair,IN,11.6667,92.75,82.44,89,40,2.3,mist
47,Nyurba,RU,63.2842,118.3319,28.56,83,43,1.63,scattered clouds
48,Nikolskoye,RU,59.7035,30.7861,55.29,64,29,6.89,scattered clouds
49,Sao Felix Do Xingu,BR,-6.6447,-51.995,87.42,58,47,5.1,scattered clouds
50,Okhotsk,RU,59.3833,143.3,33.3,99,100,10.11,overcast clouds
51,Norman Wells,CA,65.282,-126.8329,35.64,80,75,21.85,broken clouds
52,Vostok,RU,46.4856,135.8833,38.5,72,64,6.46,broken clouds
53,Mattru,SL,7.6244,-11.8332,80.67,79,81,7.63,light rain
54,Bethel,US,41.3712,-73.414,81.18,71,89,1.01,overcast clouds
55,Khani,GE,41.9563,42.9566,63.97,75,56,4.59,broken clouds
56,Upernavik,GL,72.7868,-56.1549,20.14,71,14,3.09,few clouds
57,Pevek,RU,69.7008,170.3133,32.52,92,100,11.56,overcast clouds
58,Nuuk,GL,64.1835,-51.7216,25.88,68,89,4.0,overcast clouds
59,Punta Arenas,CL,-53.15,-70.9167,50.02,76,40,11.5,scattered clouds
60,Najran,SA,17.4924,44.1277,86.65,12,2,8.23,clear sky
61,Mabaruma,GY,8.2,-59.7833,85.73,62,38,8.23,scattered clouds
62,Bengkulu,ID,-3.8004,102.2655,79.29,89,94,3.87,overcast clouds
63,Katsuura,JP,35.1333,140.3,65.86,89,73,14.9,broken clouds
64,Arraial Do Cabo,BR,-22.9661,-42.0278,78.76,61,20,11.5,few clouds
65,Tokur,RU,53.1333,132.9,30.88,98,93,3.49,overcast clouds
66,Saint George,US,37.1041,-113.5841,78.8,12,0,1.01,clear sky
67,Vaini,TO,-21.2,-175.2,71.76,73,75,9.22,broken clouds
68,Yellowknife,CA,62.456,-114.3525,54.12,40,75,13.8,broken clouds
69,Kodiak,US,57.79,-152.4072,39.29,74,100,16.13,overcast clouds
70,Magadan,RU,59.5667,150.8,38.53,99,100,11.56,moderate rain
71,Tocopilla,CL,-22.092,-70.1979,69.24,62,6,7.58,clear sky
72,Tasiilaq,GL,65.6145,-37.6368,29.93,63,72,3.8,broken clouds
73,Raga,SS,8.4596,25.678,79.25,63,68,8.25,broken clouds
74,Lompoc,US,34.6391,-120.4579,82.62,58,0,13.0,clear sky
75,Algiers,DZ,36.7525,3.042,71.42,60,0,8.05,clear sky
76,Atuona,PF,-9.8,-139.0333,78.69,72,96,19.39,overcast clouds
77,Leiyang,CN,26.4024,112.8591,56.3,97,100,9.89,overcast clouds
78,Tuktoyaktuk,CA,69.4541,-133.0374,21.2,93,100,11.5,light snow
79,Pingliang,CN,35.5392,106.6861,49.35,62,87,4.41,overcast clouds
80,Mangit,UZ,40.5971,70.9607,64.35,65,99,1.77,overcast clouds
81,Kavaratti,IN,10.5669,72.642,81.59,79,100,22.3,overcast clouds
82,Clyde River,CA,70.4692,-68.5914,25.03,80,75,12.66,broken clouds
83,Geraldton,AU,-28.7667,114.6,55.81,94,68,10.36,broken clouds
84,Moroto,UG,2.5345,34.6666,75.6,49,47,13.6,scattered clouds
85,Cilegon,ID,-6.0174,106.0538,80.94,78,81,2.48,broken clouds
86,Nanortalik,GL,60.1432,-45.2371,32.54,78,82,7.67,broken clouds
87,Port-Cartier,CA,50.0334,-66.8654,62.82,49,7,3.06,clear sky
88,Beringovskiy,RU,63.05,179.3167,34.52,97,83,1.9,broken clouds
89,Churapcha,RU,62.0025,132.4325,27.81,95,92,6.78,overcast clouds
90,Mahebourg,MU,-20.4081,57.7,75.49,73,75,6.91,broken clouds
91,Taltal,CL,-25.4,-70.4833,65.46,66,0,6.17,clear sky
92,Wanning,CN,18.8003,110.3967,79.3,88,74,4.68,broken clouds
93,Severo-Kurilsk,RU,50.6789,156.125,37.72,94,100,24.67,overcast clouds
94,Sola,VU,-13.8833,167.55,79.54,72,97,15.97,overcast clouds
95,Cabanas,CU,22.9758,-82.9219,83.32,59,4,12.97,clear sky
96,Laurel,US,39.0993,-76.8483,71.82,96,100,6.91,overcast clouds
97,Limon,CR,10.0,-83.0333,84.09,74,40,11.5,scattered clouds
98,Bontang,ID,0.1333,117.5,77.99,86,100,1.14,overcast clouds
99,Saskylakh,RU,71.9167,114.0833,19.94,91,99,8.39,overcast clouds
100,Hithadhoo,MV,-0.6,73.0833,83.3,69,67,9.22,broken clouds
101,La Piedad,MX,20.35,-102.0,88.11,26,21,1.48,few clouds
102,Kargasok,RU,59.0556,80.8572,62.11,46,97,5.95,overcast clouds
103,Constitucion,CL,-35.3333,-72.4167,59.45,45,100,5.53,overcast clouds
104,Qaanaaq,GL,77.484,-69.3632,19.71,68,44,1.92,scattered clouds
105,Epe,NG,6.5841,3.9834,84.67,71,99,7.38,overcast clouds
106,Esperance,AU,-33.8667,121.9,58.23,73,18,21.41,few clouds
107,Konevo,RU,62.1215,39.3192,48.88,82,84,4.61,broken clouds
108,Plastun,RU,44.7561,136.2939,45.05,78,100,6.73,overcast clouds
109,Cururupu,BR,-1.8283,-44.8683,86.9,62,67,7.94,moderate rain
110,Carnarvon,AU,-24.8667,113.6333,66.09,48,0,16.58,clear sky
111,Fremont,US,37.5483,-121.9886,75.2,64,0,5.01,clear sky
112,Cherskiy,RU,68.75,161.3,34.54,99,100,7.87,snow
113,Deming,US,32.2687,-107.7586,83.21,5,0,10.22,clear sky
114,Singaparna,ID,-7.3515,108.111,73.71,96,100,1.59,overcast clouds
115,Juneau,US,58.3019,-134.4197,44.83,91,100,2.62,overcast clouds
116,Puerto Leguizamo,CO,-0.1934,-74.7819,78.75,91,91,2.21,overcast clouds
117,Machali,CL,-34.1833,-70.6667,45.68,87,100,10.36,mist
118,Newport,GB,51.5877,-2.9984,69.69,57,18,1.34,few clouds
119,Saint-Philippe,RE,-21.3585,55.7679,72.99,78,67,13.02,light rain
120,Faya,SA,18.3851,42.4509,77.11,14,27,14.85,scattered clouds
121,Lorengau,PG,-2.0226,147.2712,80.98,71,18,4.14,few clouds
122,Puerto Ayora,EC,-0.7393,-90.3518,78.76,95,25,1.99,scattered clouds
123,Alofi,NU,-19.0595,-169.9187,73.29,68,100,9.22,overcast clouds
124,Gizo,SB,-8.103,156.8419,81.3,78,33,4.85,scattered clouds
125,Bluff,NZ,-46.6,168.3333,43.81,74,100,6.58,overcast clouds
126,Sobolevo,RU,54.4299,31.8996,47.53,93,100,9.1,light rain
127,Butaritari,KI,3.0707,172.7902,80.51,75,98,8.08,overcast clouds
128,Luderitz,NA,-26.6481,15.1594,61.61,60,0,14.34,clear sky
129,Torbay,CA,47.6666,-52.7314,39.27,95,100,13.8,light rain
130,Nouadhibou,MR,20.931,-17.0347,85.98,42,100,16.11,overcast clouds
131,Banjar,ID,-8.19,114.9675,78.01,89,62,1.68,broken clouds
132,Coquimbo,CL,-29.9533,-71.3436,58.73,77,40,3.44,scattered clouds
133,Bedford,GB,52.1346,-0.4663,71.58,42,0,3.44,clear sky
134,Coihaique,CL,-45.5752,-72.0662,49.95,62,20,4.61,few clouds
135,Sandakan,MY,5.8402,118.1179,78.48,88,20,3.44,few clouds
136,Deputatskiy,RU,69.3,139.9,9.81,96,100,2.01,overcast clouds
137,Shingu,JP,33.7333,135.9833,57.22,74,81,6.53,broken clouds
138,Avarua,CK,-21.2078,-159.775,76.64,84,100,28.34,moderate rain
139,Victoria,HK,22.2855,114.1577,77.38,92,99,15.99,overcast clouds
140,Tezu,IN,27.9167,96.1667,71.53,98,100,4.0,overcast clouds
141,Enshi,CN,30.3,109.4833,52.77,96,100,0.92,overcast clouds
142,Sao Filipe,CV,14.8961,-24.4956,78.35,63,66,5.44,broken clouds
143,Fukue,JP,32.6881,128.8419,63.84,51,80,22.66,broken clouds
144,Yakeshi,CN,49.2833,120.7333,43.97,59,80,7.52,broken clouds
145,Saint-Augustin,CA,51.226,-58.6502,49.03,66,89,3.65,overcast clouds
146,Ancud,CL,-41.8697,-73.8203,54.25,67,43,3.98,scattered clouds
147,Winnemucca,US,40.973,-117.7357,63.86,37,17,8.84,few clouds
148,Lander,US,42.833,-108.7307,56.98,45,100,4.7,overcast clouds
149,Sinop,TR,41.7711,34.8709,59.49,76,81,3.02,broken clouds
150,Namibe,AO,-15.1961,12.1522,73.89,64,1,7.47,clear sky
151,Grand Gaube,MU,-20.0064,57.6608,73.38,72,4,3.0,clear sky
152,Novikovo,RU,51.1537,37.8879,53.89,89,100,10.65,moderate rain
153,Shimoda,JP,34.6667,138.95,63.1,83,72,7.81,broken clouds
154,Hilo,US,19.7297,-155.09,71.62,94,71,1.01,broken clouds
155,Hobyo,SO,5.3505,48.5268,81.73,82,79,26.37,broken clouds
156,Belmonte,BR,-15.8631,-38.8828,77.18,85,88,11.1,overcast clouds
157,East London,ZA,-33.0153,27.9116,64.67,71,51,11.05,broken clouds
158,Rabaul,PG,-4.1967,152.1721,78.64,79,21,2.77,few clouds
159,Cabo San Lucas,MX,22.8909,-109.9124,85.6,71,53,3.0,broken clouds
160,Weihe,CN,32.9952,105.3247,50.18,74,100,4.63,overcast clouds
161,Husavik,IS,66.0449,-17.3389,40.86,78,99,16.11,overcast clouds
162,Pinar Del Rio,CU,22.4175,-83.6981,90.9,32,0,2.8,clear sky
163,San Policarpo,PH,12.1791,125.5072,81.5,82,74,7.45,light rain
164,Tinskoy,RU,56.1525,96.9161,55.49,38,13,2.98,few clouds
165,Kindu,CD,-2.95,25.95,78.19,70,75,3.53,broken clouds
166,Hamilton,US,39.1834,-84.5333,84.88,53,47,1.99,scattered clouds
167,Sorland,NO,67.667,12.6934,46.26,85,67,24.47,broken clouds
168,Bergen,NO,60.392,5.328,49.15,80,75,9.22,broken clouds
169,Egvekinot,RU,66.3167,-179.1667,26.24,99,100,5.55,overcast clouds
170,Murchison,NZ,-41.8,172.3333,56.48,100,100,1.45,overcast clouds
171,Preobrazheniye,RU,42.9019,133.9064,43.56,90,86,7.56,overcast clouds
172,Zhezkazgan,KZ,47.8043,67.7144,60.33,52,86,9.73,overcast clouds
173,The Valley,AI,18.217,-63.0578,84.09,71,18,21.3,few clouds
174,Sisimiut,GL,66.9395,-53.6735,27.55,60,74,15.32,broken clouds
175,Kruisfontein,ZA,-34.0033,24.7314,56.88,88,37,4.9,scattered clouds
176,Antofagasta,CL,-23.65,-70.4,66.92,64,2,7.47,clear sky
177,Oeiras Do Para,BR,-2.0031,-49.8544,84.52,79,51,4.92,broken clouds
178,Klaksvik,FO,62.2266,-6.589,47.32,89,100,2.57,overcast clouds
179,Zabaykalsk,RU,49.6333,117.3167,49.87,36,97,8.25,overcast clouds
180,San Andres,CO,12.5847,-81.7006,81.34,77,93,10.51,overcast clouds
181,Lasa,IT,46.6166,10.7002,64.36,76,13,1.9,few clouds
182,Vila Franca Do Campo,PT,37.7167,-25.4333,67.19,80,63,20.0,broken clouds
183,Flinders,AU,-34.5833,150.8552,68.18,92,31,5.01,scattered clouds
184,Catuday,PH,16.2923,119.8062,82.8,74,100,3.96,overcast clouds
185,Avera,US,33.194,-82.5271,77.05,49,15,0.92,few clouds
186,Dumas,US,35.8656,-101.9732,84.61,18,0,9.22,clear sky
187,Narsaq,GL,60.9167,-46.05,39.42,70,97,5.17,overcast clouds
188,Belaya Gora,RU,68.5333,146.4167,19.49,93,100,6.13,light snow
189,Ponta Do Sol,PT,32.6667,-17.1,75.7,64,8,10.04,clear sky
190,Lavrentiya,RU,65.5833,-171.0,27.34,93,52,6.2,broken clouds
191,Requena,ES,39.4883,-1.1004,64.53,46,26,4.54,scattered clouds
192,Waitati,NZ,-45.75,170.5667,47.8,85,100,1.5,overcast clouds
193,Provideniya,RU,64.3833,-173.3,33.58,95,89,4.59,overcast clouds
194,Tucuma,BR,-0.1833,-50.05,82.15,85,72,6.91,broken clouds
195,Ribeira Grande,PT,38.5167,-28.7,64.8,72,40,21.85,scattered clouds
196,Boa Vista,BR,2.8197,-60.6733,89.58,51,75,10.36,broken clouds
197,Tortoli,IT,39.9256,9.6572,70.25,57,2,1.59,clear sky
198,Doghs,AM,40.2237,44.2717,68.94,28,97,0.0,overcast clouds
199,Shelburne,CA,44.0787,-80.2041,78.3,57,2,8.41,clear sky
200,Champasak,LA,14.75,106.0,76.12,97,100,2.19,heavy intensity rain
201,Songea,TZ,-10.6833,35.65,60.55,80,64,2.48,broken clouds
202,Lewiston,US,44.1003,-70.2148,93.7,46,6,1.01,clear sky
203,Necochea,AR,-38.5473,-58.7368,57.13,49,0,16.04,clear sky
204,Krasnokamensk,RU,50.0979,118.0369,49.6,38,96,4.34,overcast clouds
205,Eyl,SO,7.9803,49.8164,83.5,76,84,25.19,broken clouds
206,Tahoua,NE,14.8888,5.2692,104.49,7,91,7.18,overcast clouds
207,Tiksi,RU,71.6872,128.8694,4.64,100,24,5.66,few clouds
208,Kholmogory,RU,64.2229,41.656,53.26,78,98,6.78,overcast clouds
209,Erenhot,CN,43.6475,111.9767,52.54,28,47,3.89,scattered clouds
210,Balikpapan,ID,-1.2675,116.8289,79.79,94,40,2.3,scattered clouds
211,Rosario Oeste,BR,-14.8361,-56.4275,94.51,31,12,3.4,few clouds
212,Havoysund,NO,70.9963,24.6622,39.43,87,83,8.61,broken clouds
213,Kurmanayevka,RU,52.5093,52.0675,54.46,77,100,7.99,overcast clouds
214,Kapoeta,SS,4.7717,33.5903,88.66,34,17,15.48,few clouds
215,Port Macquarie,AU,-31.4333,152.9167,64.89,92,86,7.29,overcast clouds
216,Tarakan,ID,3.3,117.6333,79.63,84,99,4.59,overcast clouds
217,Kungurtug,RU,50.5994,97.5228,43.61,42,12,0.96,few clouds
218,Ploufragan,FR,48.4914,-2.7946,64.04,79,0,5.75,clear sky
219,Los Llanos De Aridane,ES,28.6585,-17.9182,69.55,76,40,8.99,scattered clouds
220,Umm Kaddadah,SD,13.6017,26.6876,94.89,18,13,8.97,few clouds
221,Pacific Grove,US,36.6177,-121.9166,71.2,85,75,11.99,broken clouds
222,Lieksa,FI,63.3167,30.0167,47.91,59,32,1.32,scattered clouds
223,Nouakchott,MR,18.0858,-15.9785,89.74,37,92,5.55,overcast clouds
224,Itoman,JP,26.1247,127.6694,73.42,94,100,8.05,light rain
225,Sinnamary,GF,5.3833,-52.95,81.95,83,90,9.82,overcast clouds
226,Conceicao Da Barra,BR,-18.5933,-39.7322,78.96,65,100,9.37,overcast clouds
227,Plouzane,FR,48.3833,-4.6167,66.25,70,0,11.5,clear sky
228,Saint-Pierre,RE,-21.3393,55.4781,73.08,73,20,12.66,few clouds
229,Port Lincoln,AU,-34.7333,135.8667,60.49,79,5,13.49,clear sky
230,Tornio,FI,65.8481,24.1466,57.22,75,100,3.71,overcast clouds
231,Lola,GN,7.8,-8.5333,75.51,95,81,3.29,moderate rain
232,Castro,BR,-24.7911,-50.0119,71.31,48,100,4.99,overcast clouds
233,North Bend,US,43.4065,-124.2243,60.24,100,100,1.01,overcast clouds
234,Sitka,US,57.0531,-135.33,46.54,69,61,1.83,broken clouds
235,Harindanga,IN,22.0383,88.3214,84.67,81,94,20.2,overcast clouds
236,Merrill,US,45.1805,-89.6835,77.81,31,0,4.61,clear sky
237,Olafsvik,IS,64.8945,-23.7142,41.5,69,44,12.01,scattered clouds
238,Candelaria,PH,13.9311,121.4233,79.39,87,99,1.97,overcast clouds
239,Omsukchan,RU,62.5333,155.8,27.34,98,98,7.74,overcast clouds
240,Galesong,ID,-5.3166,119.3661,77.02,86,88,7.63,overcast clouds
241,Storsteinnes,NO,69.2408,19.2344,43.45,100,100,1.79,light rain
242,Talnakh,RU,69.4865,88.3972,35.11,99,100,5.44,overcast clouds
243,Peterhead,GB,57.5058,-1.7981,62.46,81,84,4.65,broken clouds
244,Sokoni,TZ,-6.4333,39.55,80.71,73,42,15.82,scattered clouds
245,Aripuana,BR,-9.1667,-60.6333,91.87,48,30,4.21,scattered clouds
246,Ilulissat,GL,69.2167,-51.1,26.62,63,20,3.44,few clouds
247,Caracal,RO,44.1167,24.35,79.79,63,67,5.97,broken clouds
248,Hualmay,PE,-11.0964,-77.6139,69.42,70,20,9.33,few clouds
249,Hami,CN,42.8,93.45,66.63,8,40,9.4,scattered clouds
250,Mahibadhoo,MV,3.7833,72.9667,83.14,76,100,17.98,overcast clouds
251,Khatanga,RU,71.9667,102.5,33.55,99,100,7.56,overcast clouds
252,Georgetown,MY,5.4112,100.3354,84.13,79,20,2.3,few clouds
253,Mathbaria,BD,22.2876,89.9593,83.48,84,100,15.28,overcast clouds
254,Zlate Moravce,SK,48.3855,18.4006,71.64,67,54,1.99,broken clouds
255,Harrismith,ZA,-28.2728,29.1295,54.73,47,96,4.41,overcast clouds
256,Otofuke,JP,42.9917,143.2003,46.89,68,99,8.93,overcast clouds
257,Anchorage,US,61.2181,-149.9003,41.99,81,100,10.0,overcast clouds
258,Itarema,BR,-2.9248,-39.9167,83.14,76,100,13.56,overcast clouds
259,Iqaluit,CA,63.7506,-68.5145,20.93,73,75,21.85,light snow
260,Baruun-Urt,MN,46.6806,113.2792,46.42,47,65,7.74,broken clouds
261,Saquena,PE,-4.6667,-73.5167,88.65,60,45,1.59,scattered clouds
262,Sao Geraldo Do Araguaia,BR,-6.4006,-48.555,86.14,71,62,4.92,broken clouds
263,Okmulgee,US,35.6234,-95.9605,85.08,69,0,0.0,clear sky
264,Kutum,SD,14.2,24.6667,89.15,24,69,12.21,broken clouds
265,Fort Nelson,CA,58.8053,-122.7002,48.31,83,100,1.52,overcast clouds
266,Mon,IN,26.75,95.1,67.08,98,67,2.98,broken clouds
267,Cidreira,BR,-30.1811,-50.2056,67.95,77,91,14.65,light rain
268,Krasnoselkup,RU,65.7,82.4667,49.42,78,50,11.99,scattered clouds
269,Kieta,PG,-6.2167,155.6333,76.93,82,68,2.73,broken clouds
270,Siemiatycze,PL,52.4272,22.8623,55.98,72,67,11.56,broken clouds
271,Butajira,ET,8.1167,38.3667,68.31,32,80,8.41,broken clouds
272,Zhigansk,RU,66.7697,123.3711,20.48,83,11,9.48,few clouds
273,Kilinochchi,LK,9.3961,80.3982,81.9,78,98,18.03,overcast clouds
274,Kavieng,PG,-2.5744,150.7967,81.55,73,38,9.91,scattered clouds
275,Nadym,RU,65.5333,72.5167,43.7,97,100,10.07,light rain
276,Bambous Virieux,MU,-20.3428,57.7575,73.22,72,66,12.03,broken clouds
277,Gambela,ET,8.25,34.5833,76.66,76,76,4.25,moderate rain
278,Soyo,AO,-6.1349,12.3689,78.57,85,24,8.63,few clouds
279,Lebu,CL,-37.6167,-73.65,54.66,68,90,18.52,overcast clouds
280,Antiguo Morelos,MX,22.5495,-99.0812,86.45,43,73,6.78,broken clouds
281,Mbanza-Ngungu,CD,-5.25,14.8667,71.96,93,40,3.91,moderate rain
282,Sayyan,YE,15.1718,44.3244,67.26,15,2,13.65,clear sky
283,Touros,BR,-5.1989,-35.4608,84.81,70,50,14.99,scattered clouds
284,General Elizardo Aquino,PY,-24.4333,-56.7,64.92,99,100,2.71,moderate rain
285,Kirakira,SB,-10.4544,161.9205,78.66,84,8,2.62,clear sky
286,Wairoa,NZ,-39.0333,177.3667,53.55,96,100,3.0,light rain
287,Sur,OM,22.5667,59.5289,84.81,69,0,4.45,clear sky
288,San Patricio,US,28.017,-97.5169,89.55,39,48,8.88,scattered clouds
289,Kobelyaky,UA,49.1489,34.1965,56.44,85,46,6.24,light rain
290,Nelson Bay,AU,-32.7167,152.15,64.09,95,5,5.53,clear sky
291,Harper,LR,4.375,-7.7169,74.44,88,95,8.21,moderate rain
292,Furstenwalde,DE,52.3667,14.0667,68.09,59,91,10.49,overcast clouds
293,Safranbolu,TR,41.2508,32.6942,60.33,68,68,2.93,broken clouds
294,Ahipara,NZ,-35.1667,173.1667,61.39,82,56,9.28,broken clouds
295,Jashpurnagar,IN,22.9,84.15,85.21,27,86,3.4,overcast clouds
296,Lipetsk,RU,52.6031,39.5708,52.07,80,97,7.11,overcast clouds
297,Nchelenge,ZM,-9.3451,28.734,71.85,67,4,1.7,clear sky
298,Vung Tau,VN,10.346,107.0843,84.0,81,69,9.8,broken clouds
299,Virginia Beach,US,36.8529,-75.978,74.03,87,100,9.46,overcast clouds
300,Oxelosund,SE,58.6706,17.1015,60.89,87,75,12.66,light intensity shower rain
301,Petropavlovsk-Kamchatskiy,RU,53.0452,158.6483,38.1,98,100,7.92,overcast clouds
302,Talcahuano,CL,-36.7167,-73.1167,55.08,54,0,6.91,clear sky
303,Santa Cruz,BO,-17.8,-63.1667,85.12,49,42,9.22,scattered clouds
304,Strathmore,CA,51.0501,-113.3852,52.36,48,20,11.32,few clouds
305,Saint Anthony,US,45.0205,-93.218,75.25,46,75,17.27,broken clouds
306,Manokwari,ID,-0.8667,134.0833,79.12,76,100,3.4,overcast clouds
307,Axim,GH,4.8699,-2.2405,83.19,77,70,9.06,light rain
308,San Ignacio,BZ,17.1561,-89.0714,93.34,38,20,6.91,few clouds
309,Eureka,US,40.8021,-124.1637,70.2,74,90,4.99,overcast clouds
310,Codrington,AU,-38.2667,141.9667,54.0,94,0,11.05,clear sky
311,Nantucket,US,41.2835,-70.0995,78.91,78,100,10.36,overcast clouds
312,Tautira,PF,-17.7333,-149.15,79.88,68,3,12.97,clear sky
313,Coahuayana,MX,18.7333,-103.6833,91.4,38,100,6.13,overcast clouds
314,Sacramento,US,38.4666,-121.3177,79.93,48,0,8.05,clear sky
315,Adrar,MR,20.5022,-10.0711,103.41,7,29,13.2,scattered clouds
316,Lardos,GR,36.0942,28.0157,69.62,64,0,8.72,clear sky
317,Evensk,RU,61.95,159.2333,33.15,99,100,1.43,overcast clouds
318,Rawson,AR,-43.3002,-65.1023,55.18,43,9,19.15,clear sky
319,Marovoay,MG,-16.1,46.6333,77.22,54,0,4.94,clear sky
320,Dutlwe,BW,-23.9833,23.9,71.91,27,18,5.95,few clouds
321,Bulgan,MN,48.8125,103.5347,47.59,27,8,3.24,clear sky
322,Kodinsk,RU,58.6881,99.1844,53.24,40,6,3.24,clear sky
323,Rudbar,AF,30.15,62.6,75.0,28,0,19.53,clear sky
324,Fairbanks,US,64.8378,-147.7164,39.31,88,75,3.44,broken clouds
325,West Wendover,US,40.7391,-114.0733,65.41,22,0,6.91,clear sky
326,Watsa,CD,3.0372,29.5355,63.66,97,99,3.06,light rain
327,Kayerkan,RU,69.3497,87.7602,34.92,98,100,3.36,overcast clouds
328,Haskovo,BG,41.9403,25.5694,62.11,89,85,6.51,overcast clouds
329,Pitsunda,GE,43.1592,40.3378,66.38,71,25,0.85,scattered clouds
330,Tuatapere,NZ,-46.1333,167.6833,46.13,91,100,3.04,overcast clouds
331,Korla,CN,41.7597,86.1469,69.35,31,9,4.72,clear sky
332,Ostrovnoy,RU,68.0531,39.5131,38.84,84,97,5.97,overcast clouds
333,Vagay,RU,57.9375,69.0217,51.51,90,66,3.71,broken clouds
334,Scottsbluff,US,41.8666,-103.6672,66.78,34,0,3.0,clear sky
335,Makat,KZ,47.6469,53.3463,66.02,59,50,17.87,scattered clouds
336,Puerto Baquerizo Moreno,EC,-0.9,-89.6,79.79,65,75,16.11,broken clouds
337,Ayagoz,KZ,47.9714,80.4392,62.2,58,98,8.41,overcast clouds
338,Kahului,US,20.8947,-156.47,76.84,83,35,8.01,scattered clouds
339,Seoul,KR,37.5683,126.9778,53.04,31,100,3.06,overcast clouds
340,Pakxan,LA,18.3778,103.6601,78.17,87,100,3.18,overcast clouds
341,Lagoa,PT,39.05,-27.9833,61.38,83,100,25.99,light rain
342,Alepe,CI,5.5004,-3.6631,84.07,73,99,7.25,overcast clouds
343,Kirkkonummi,FI,60.1238,24.4385,56.39,81,83,9.31,broken clouds
344,Penzance,GB,50.1186,-5.5371,54.72,82,40,6.91,scattered clouds
345,Sawtell,AU,-30.3833,153.1,68.18,94,100,0.0,overcast clouds
346,Camopi,GF,3.1655,-52.3158,83.32,78,86,3.29,overcast clouds
347,Merauke,ID,-8.4667,140.3333,80.13,74,100,8.08,overcast clouds
348,Padang,ID,-0.9492,100.3543,79.52,82,35,3.49,scattered clouds
349,Nhamunda,BR,-2.1861,-56.7131,86.14,69,53,5.06,light rain
350,Hovd,MN,48.0056,91.6419,53.65,17,5,3.15,clear sky
351,Cayenne,GF,4.9333,-52.3333,85.08,1,75,7.0,broken clouds
352,Komsomolskiy,UZ,40.4272,71.7189,61.52,82,75,4.61,broken clouds
353,Marawi,PH,7.9986,124.2928,69.3,95,100,2.71,overcast clouds
354,Coutances,FR,49.05,-1.4333,66.34,67,99,10.07,overcast clouds
355,Meadow Lake,US,34.8014,-106.5436,79.95,12,0,9.22,clear sky
356,Chicaman,GT,15.4,-90.7667,76.32,37,84,4.68,broken clouds
357,Doba,TD,8.65,16.85,93.18,33,76,4.12,broken clouds
358,Millinocket,US,45.6573,-68.7098,87.91,35,0,4.61,clear sky
359,Frolovo,RU,49.7713,43.6622,59.4,75,100,11.86,overcast clouds
360,Emba,KZ,48.8264,58.1442,61.7,51,40,6.42,scattered clouds
361,Port Shepstone,ZA,-30.7414,30.455,67.68,79,100,14.97,light rain
362,Tarko-Sale,RU,64.9225,77.785,57.79,52,57,13.65,broken clouds
363,Tazovskiy,RU,67.4667,78.7,35.96,98,96,8.61,overcast clouds
364,Cuenca,EC,-2.8833,-78.9833,65.88,67,89,6.93,light rain
365,Iskilip,TR,40.7353,34.4739,66.09,41,25,4.92,scattered clouds
366,Salalah,OM,17.0151,54.0924,86.09,74,4,6.91,clear sky
367,Chapais,CA,49.7834,-74.8492,74.08,53,82,5.57,broken clouds
368,Margate,GB,51.3813,1.3862,66.11,72,6,8.01,clear sky
369,Brownsville,US,25.9018,-97.4975,90.01,57,20,11.5,few clouds
370,Maraba,BR,-5.3686,-49.1178,91.58,66,40,5.75,scattered clouds
371,Lensk,RU,60.7253,114.9278,41.32,90,100,1.9,overcast clouds
372,Enzan,JP,35.7,138.7333,59.9,72,100,2.24,overcast clouds
373,Cajimos,PH,12.5946,122.2753,81.93,77,82,2.89,broken clouds
374,Bambanglipuro,ID,-7.95,110.2833,79.03,87,100,2.26,overcast clouds
375,Kloulklubed,PW,7.0419,134.2556,73.9,78,100,8.99,overcast clouds
376,Koutiala,ML,12.3917,-5.4642,105.55,7,94,13.15,overcast clouds
377,Okhansk,RU,57.7186,55.3877,53.06,79,100,5.23,overcast clouds
378,Mariental,NA,-24.6333,17.9667,71.33,17,0,5.5,clear sky
379,Grindavik,IS,63.8424,-22.4338,45.07,87,100,16.11,light rain
380,Hokitika,NZ,-42.7167,170.9667,58.78,93,100,2.35,overcast clouds
381,Bumba,CD,2.1833,22.4667,74.44,86,71,2.06,broken clouds
382,Makakilo City,US,21.3469,-158.0858,74.19,75,0,10.36,clear sky
383,Saldanha,ZA,-33.0117,17.9442,60.21,81,0,15.46,clear sky
384,Selma,US,36.5708,-119.6121,77.18,51,0,1.68,clear sky
385,Namatanai,PG,-3.6667,152.4333,77.99,79,24,5.08,few clouds
386,Aswan,EG,24.0934,32.907,102.76,8,0,6.13,clear sky
387,Diego De Almagro,CL,-26.3667,-70.05,75.4,17,0,6.82,clear sky
388,Portobelo,PA,9.55,-79.65,87.12,85,100,4.07,overcast clouds
389,Trincomalee,LK,8.5711,81.2335,82.2,77,86,25.12,overcast clouds
390,Hamada,JP,34.8833,132.0833,55.74,58,91,5.91,light rain
391,Linfen,CN,36.0889,111.5189,56.07,53,6,5.93,clear sky
392,Beloomut,RU,54.9448,39.3394,48.25,88,49,6.29,scattered clouds
393,Burns Lake,CA,54.2331,-125.7533,46.78,44,22,3.53,few clouds
394,Tiznit,MA,29.5833,-9.5,82.58,31,63,7.34,broken clouds
395,Chuguyevka,RU,44.1653,133.8633,39.7,97,96,3.96,overcast clouds
396,Dalvik,IS,65.9702,-18.5286,40.68,75,96,4.34,overcast clouds
397,Kuah,MY,6.3265,99.8432,85.46,71,83,5.75,broken clouds
398,Nara,JP,34.6851,135.8049,58.5,52,84,0.81,broken clouds
399,Walvis Bay,NA,-22.9575,14.5053,56.08,69,3,13.35,clear sky
400,Puerto Ayacucho,VE,5.6639,-67.6236,88.84,63,94,2.33,overcast clouds
401,Kailua,US,21.4022,-157.7394,75.65,77,40,8.05,scattered clouds
402,Agadir,MA,30.4202,-9.5982,77.45,47,69,9.73,broken clouds
403,Baracoa,CU,20.3467,-74.4958,86.63,60,100,1.21,overcast clouds
404,Isabela,PH,6.7085,121.9711,78.85,87,100,3.8,light rain
405,Camacha,PT,33.0833,-16.3333,67.42,64,20,14.97,few clouds
406,Port-Gentil,GA,-0.7193,8.7815,84.16,79,40,12.66,scattered clouds
407,Alyangula,AU,-13.8483,136.4192,74.91,61,100,6.91,overcast clouds
408,Morrinhos,BR,-17.7311,-49.0994,87.33,31,57,5.3,broken clouds
409,Anadyr,RU,64.75,177.4833,35.01,97,100,13.0,overcast clouds
410,Schonaich,DE,48.65,9.0667,71.89,37,0,8.05,clear sky
411,Faanui,PF,-16.4833,-151.75,81.12,67,72,13.89,broken clouds
412,Ilhabela,BR,-23.7781,-45.3581,74.37,75,32,8.14,scattered clouds
413,Neuquen,AR,-38.9516,-68.0591,57.09,41,0,6.91,clear sky
414,Abrau-Dyurso,RU,44.69,37.59,56.66,60,95,4.83,overcast clouds
415,Leningradskiy,RU,69.3833,178.4167,28.44,87,83,5.23,broken clouds
416,Carutapera,BR,-1.195,-46.02,83.84,77,65,9.04,light rain
417,Byron Bay,AU,-28.65,153.6167,68.7,94,91,5.37,overcast clouds
418,Kaitangata,NZ,-46.2817,169.8464,44.15,85,100,0.6,overcast clouds
419,Myrtle Beach,US,33.6891,-78.8867,82.98,71,20,9.22,few clouds
420,Guerrero Negro,MX,27.9769,-114.0611,74.52,43,80,7.0,broken clouds
421,Westport,US,41.1415,-73.3579,82.44,83,0,5.75,clear sky
422,Pangody,RU,65.85,74.4859,41.68,86,94,11.03,overcast clouds
423,Yulara,AU,-25.2406,130.9889,64.58,60,100,6.58,overcast clouds
424,Muros,ES,42.7762,-9.0603,87.67,45,61,5.88,broken clouds
425,Marsaxlokk,MT,35.8419,14.5431,75.81,29,0,6.91,clear sky
426,Nanakuli,US,21.3906,-158.1547,75.61,73,0,4.61,clear sky
427,Carolina,PR,18.3808,-65.9574,87.69,64,20,17.27,few clouds
428,Chivay,PE,-15.6383,-71.6011,57.7,33,19,3.56,few clouds
429,Dicabisagan,PH,17.0818,122.4157,77.81,88,100,4.18,overcast clouds
430,Novopokrovka,UA,49.8425,36.5477,53.47,95,96,5.14,overcast clouds
431,Caravelas,BR,-17.7125,-39.2481,78.75,69,100,10.11,overcast clouds
432,Alpinopolis,BR,-20.8636,-46.3881,79.48,44,0,4.09,clear sky
433,Yining,CN,29.0361,114.5636,57.09,98,100,4.09,overcast clouds
434,Sagarejo,GE,41.734,45.3315,66.63,76,59,5.37,broken clouds
435,Tomball,US,30.0972,-95.6161,87.91,64,20,8.05,few clouds
436,Lamar,US,33.6668,-95.5836,84.11,61,40,5.75,scattered clouds
437,Acapulco,MX,16.8634,-99.8901,87.62,70,100,9.22,overcast clouds
438,Berdigestyakh,RU,62.0989,126.6992,23.58,87,27,7.83,scattered clouds
439,Viedma,AR,-40.8135,-62.9967,57.72,45,0,17.96,clear sky
440,Roanoke Rapids,US,36.4615,-77.6542,76.01,94,75,3.44,broken clouds
441,Durham,US,36.0335,-78.8664,76.6,78,75,3.44,broken clouds
442,Bukama,CD,-9.2,25.85,73.35,54,7,3.62,clear sky
443,Isangel,VU,-19.55,169.2667,72.68,71,85,9.78,overcast clouds
444,Amapa,BR,1.0,-52.0,80.78,87,100,3.15,overcast clouds
445,Sioux Lookout,CA,50.1001,-91.917,67.95,38,6,12.55,moderate rain
446,Gorontalo,ID,0.5412,123.0595,75.07,97,100,3.04,moderate rain
447,Bonoua,CI,5.2741,-3.595,83.82,75,86,7.96,light rain
448,Kulhudhuffushi,MV,6.6221,73.07,79.07,86,100,20.45,light rain
449,Puerto Colombia,CO,10.9878,-74.9547,86.09,68,100,1.9,overcast clouds
450,Holme,DK,56.1138,10.1725,56.77,63,29,17.58,scattered clouds
451,Qidong,CN,31.8128,121.6561,63.93,62,100,4.18,overcast clouds
452,Repnoye,RU,51.5921,43.1861,52.38,87,61,7.49,light rain
453,Patan,NP,27.6667,85.3333,73.78,88,40,3.44,scattered clouds
454,Mnogovershinnyy,RU,53.9353,139.9242,28.62,98,100,9.98,snow
455,Aklavik,CA,68.2191,-135.0107,24.3,80,100,12.55,overcast clouds
456,Canton,CN,23.1167,113.25,73.35,90,100,5.3,overcast clouds
457,Savannah Bight,HN,16.45,-85.85,79.92,65,5,4.56,clear sky
458,Bowen,AU,-20.0167,148.2333,74.07,77,65,3.62,broken clouds
459,Fenoarivo,MG,-18.933,47.4354,60.87,82,20,8.05,few clouds
460,Chegdomyn,RU,51.1167,133.0167,38.61,88,86,1.63,overcast clouds
461,Sabirabad,AZ,40.0095,48.4752,63.73,62,32,11.36,scattered clouds
462,Marivan,IR,35.5219,46.176,60.48,39,0,0.43,clear sky
463,Gemena,CD,3.25,19.7667,73.76,88,97,3.58,overcast clouds
464,Samana,DO,19.2056,-69.3369,85.96,74,40,11.5,scattered clouds
465,Vojens,DK,55.2464,9.306,58.51,62,75,18.41,broken clouds
466,Ginda,IN,30.6945,78.4932,68.07,25,0,7.83,clear sky
467,Onega,RU,63.9061,38.1404,45.99,87,94,5.93,overcast clouds
468,Bouza,NE,14.4229,6.0428,103.44,7,42,7.25,scattered clouds
469,Benguela,AO,-12.5763,13.4055,76.57,82,5,3.8,clear sky
470,Kaeo,NZ,-35.1,173.7833,53.33,94,32,5.32,scattered clouds
471,Garden City,US,42.3256,-83.331,85.3,51,40,12.66,scattered clouds
472,San Cristobal,VE,7.7669,-72.225,82.58,49,99,8.41,overcast clouds
473,Yevlax,AZ,40.6089,47.1492,69.78,56,0,4.61,clear sky
474,Sangmelima,CM,2.9333,11.9833,72.75,96,63,2.77,light rain
475,Paka,MY,4.6374,103.4368,80.46,86,100,2.82,overcast clouds
476,Taoudenni,ML,22.6783,-3.9836,100.49,7,12,20.38,few clouds
477,Priladozhskiy,RU,59.85,31.4833,50.5,63,23,7.67,few clouds
478,Conde,BR,-7.2597,-34.9075,83.66,79,75,13.8,broken clouds
479,Mastic Beach,US,40.7668,-72.8521,74.41,91,96,7.0,overcast clouds
480,Elat,IL,29.5581,34.9482,96.64,16,57,5.75,dust
481,Kodama,JP,36.1833,139.1333,61.93,66,100,5.84,overcast clouds
482,Karratha,AU,-20.7377,116.8463,75.09,55,2,9.98,clear sky
483,Broome,US,42.2506,-75.833,79.2,59,75,10.0,broken clouds
484,Northam,GB,51.0333,-4.2167,60.66,78,34,6.58,scattered clouds
485,Havre-Saint-Pierre,CA,50.2334,-63.5986,52.61,50,4,15.68,clear sky
486,Talara,PE,-4.5772,-81.2719,79.56,57,0,16.11,clear sky
487,Warrnambool,AU,-38.3833,142.4833,56.8,90,0,13.06,clear sky
488,Ambilobe,MG,-13.2,49.05,71.49,77,0,3.69,clear sky
489,Bathsheba,BB,13.2167,-59.5167,82.76,65,89,17.56,overcast clouds
490,Zeya,RU,53.75,127.2667,38.66,56,5,9.91,clear sky
491,Obsharovka,RU,53.125,48.8531,52.18,81,73,7.61,broken clouds
492,Cap Malheureux,MU,-19.9842,57.6142,73.47,72,2,5.01,clear sky
493,Xingyi,CN,24.1877,102.817,60.19,95,12,2.8,few clouds
494,La Grande,US,45.3246,-118.0877,50.0,95,100,4.52,light rain
495,Koslan,RU,63.4564,48.8989,50.92,86,81,1.59,light rain
496,Subirana,HN,15.2,-87.45,80.62,20,26,4.21,scattered clouds
497,Pangnirtung,CA,66.1451,-65.7125,21.0,86,14,4.59,few clouds
498,Ugoofaaru,MV,5.6667,73.0,80.19,83,100,14.7,overcast clouds
499,Guanica,PR,17.9716,-66.908,87.13,72,81,20.87,broken clouds
500,Kalmunai,LK,7.4167,81.8167,79.75,85,100,7.85,overcast clouds
501,Hailar,CN,49.2,119.7,45.86,50,85,9.15,overcast clouds
502,Nangong,CN,37.3581,115.3744,59.29,32,17,6.67,few clouds
503,Odesskoye,RU,54.2111,72.9651,60.62,56,61,10.04,broken clouds
504,Nanyang,CN,32.9947,112.5328,55.38,74,100,6.35,moderate rain
505,Kenai,US,60.5544,-151.2583,44.65,48,0,17.27,clear sky
506,Bhatkal,IN,13.9667,74.5667,82.9,80,100,8.28,overcast clouds
507,Huarmey,PE,-10.0681,-78.1522,70.81,71,15,10.09,few clouds
508,Piacabucu,BR,-10.4056,-36.4344,80.19,82,92,10.33,light rain
509,Santa Isabel Do Rio Negro,BR,-0.4139,-65.0192,87.67,62,91,4.45,overcast clouds
510,Bodinayakkanur,IN,10.0167,77.35,77.47,87,94,6.51,overcast clouds
511,Gusinoye Ozero,RU,51.1144,106.2614,52.03,30,32,5.82,scattered clouds
512,Aleksandrovskoye,RU,44.7142,43.0008,61.72,80,76,2.48,moderate rain
513,Pangoa,PE,-12.1167,-73.0,86.23,48,15,4.03,few clouds
514,Nemuro,JP,43.3236,145.575,45.28,72,100,19.91,overcast clouds
515,Kualakapuas,ID,-3.0091,114.3876,77.38,90,100,2.04,light rain
516,Noshiro,JP,40.2039,140.0242,52.74,81,95,17.56,overcast clouds
517,Dunedin,NZ,-45.8742,170.5036,47.8,85,100,1.03,overcast clouds
518,Kishtwar,IN,33.3167,75.7667,65.53,35,50,6.46,scattered clouds
519,Champerico,GT,14.3,-91.9167,91.94,64,77,8.14,broken clouds
520,Mwinilunga,ZM,-11.7358,24.4293,63.14,57,1,4.03,clear sky
521,Mecca,SA,21.4267,39.8261,92.68,29,0,2.86,clear sky
522,Farafangana,MG,-22.8167,47.8333,71.1,73,9,5.66,clear sky
523,Igrim,RU,63.1906,64.4162,48.96,75,20,8.3,few clouds
524,Zhetysay,KZ,40.7333,68.3,62.01,79,97,4.68,overcast clouds
525,Taiyuan,CN,37.8694,112.5603,48.06,71,0,4.47,clear sky
526,Powell River,CA,49.8496,-124.5361,49.33,71,98,3.96,overcast clouds
527,Oranjestad,AW,12.524,-70.027,80.56,85,95,26.44,overcast clouds
528,La Carolina,ES,38.2756,-3.6153,84.72,25,46,13.44,scattered clouds
529,Amahai,ID,-3.3333,128.9167,78.89,85,100,5.03,overcast clouds
530,Praya,CV,14.9215,-23.5087,86.54,39,0,29.93,clear sky
531,Thaba-Tseka,LS,-29.522,28.6084,48.16,48,76,4.88,broken clouds
532,Mantua,IT,45.1667,10.7833,83.08,57,9,1.99,clear sky
533,Nome,US,64.5011,-165.4064,32.07,74,0,0.0,clear sky
534,Togur,RU,58.3631,82.8265,63.43,40,88,6.73,overcast clouds
535,Progreso,MX,21.2833,-89.6667,89.71,53,0,10.8,clear sky
536,Fonte Boa,BR,-2.4959,-66.2662,81.59,91,66,3.58,broken clouds
537,Vannes,FR,47.8333,-2.5,75.81,68,100,9.15,overcast clouds
538,Broken Hill,AU,-31.95,141.4333,61.65,57,99,7.43,overcast clouds
539,Chengzihe,CN,45.3333,131.0667,40.46,85,30,6.87,scattered clouds
540,Abyek,IR,36.0667,50.55,61.11,26,0,4.36,clear sky
541,Hambantota,LK,6.1241,81.1185,78.35,89,100,25.99,overcast clouds
542,Chicama,PE,-7.8447,-79.1469,64.94,62,88,8.21,overcast clouds
543,Bilibino,RU,68.0546,166.4372,33.1,99,100,7.92,snow
544,Mareeba,AU,-17.0,145.4333,69.44,96,91,1.97,overcast clouds
545,Guadalajara,MX,20.6667,-103.3333,82.98,35,0,5.75,clear sky
546,Matamoros,MX,25.5333,-103.25,86.11,28,0,4.61,clear sky
547,Kitimat,CA,54.0524,-128.6534,50.92,52,99,0.94,overcast clouds
548,Changji,CN,44.0167,87.3167,75.99,11,0,17.9,clear sky
549,Grand-Santi,GF,4.25,-54.3833,83.62,78,99,3.38,overcast clouds
550,Amposta,ES,40.7131,0.581,78.22,54,87,8.95,overcast clouds
551,Gimli,CA,50.6336,-96.9907,41.97,84,98,18.25,overcast clouds
552,Sibu,MY,2.3,111.8167,75.61,90,72,1.21,broken clouds
553,Butte,US,39.6499,-121.5677,74.37,43,0,6.91,clear sky
554,Samarai,PG,-10.6167,150.6667,80.87,79,29,9.01,scattered clouds
555,Marsa Matruh,EG,31.3525,27.2453,67.28,68,0,9.78,clear sky
556,Arlit,NE,18.7369,7.3853,103.69,6,3,6.38,clear sky
557,Raudeberg,NO,61.9875,5.1352,47.86,77,96,16.78,overcast clouds
558,Tomatlan,MX,19.9333,-105.25,90.37,38,99,6.38,overcast clouds
559,La Tuque,CA,47.4334,-72.7824,84.79,46,100,1.41,overcast clouds
560,Heide,DE,54.2,9.1,61.18,72,30,9.26,scattered clouds
561,Liverpool,GB,53.4106,-2.9779,71.06,58,20,7.0,few clouds
562,Mehamn,NO,71.0357,27.8492,40.91,79,40,7.81,scattered clouds
563,Nettuno,IT,41.4826,12.679,77.22,59,2,8.21,clear sky
564,Prokuplje,RS,43.2342,21.5881,76.28,66,51,7.23,broken clouds
565,Acobamba,PE,-11.3525,-75.6594,64.42,56,65,7.94,broken clouds
566,Lazaro Cardenas,MX,17.9583,-102.2,86.74,57,81,6.06,broken clouds
567,Kang,BW,-23.6752,22.7876,69.91,26,5,0.89,clear sky
568,Muswellbrook,AU,-32.2667,150.9,57.33,95,32,2.95,scattered clouds
569,Hofn,IS,64.2539,-15.2082,38.93,94,100,14.85,overcast clouds
570,Palana,RU,59.1167,159.9667,34.59,94,100,5.88,overcast clouds
571,Sukhumi,GE,43.0033,41.0153,61.47,77,42,3.33,scattered clouds
572,Vestmannaeyjar,IS,63.4427,-20.2734,43.79,93,75,32.21,broken clouds
573,Barcelos,PT,41.5388,-8.6151,76.68,49,60,3.06,broken clouds
574,Kuryk,KZ,43.2,51.65,60.64,68,4,16.55,clear sky
575,Uravakonda,IN,14.95,77.2667,86.02,55,53,18.97,broken clouds
576,Andenes,NO,69.3143,16.1194,46.38,76,75,8.05,broken clouds
577,Boende,CD,-0.2167,20.8667,82.2,65,69,0.89,broken clouds
578,Praia,CV,14.9215,-23.5087,86.54,39,0,29.93,clear sky
579,Morehead,US,37.2711,-87.1764,82.85,61,40,6.91,scattered clouds
580,Elizabeth City,US,36.2946,-76.2511,74.01,84,100,9.22,overcast clouds
581,Roma,US,43.2128,-75.4557,81.95,54,0,3.0,clear sky
582,Bay City,US,43.5945,-83.8889,86.11,39,20,10.36,few clouds
583,Banda Aceh,ID,5.5577,95.3222,81.36,82,100,1.92,overcast clouds
584,Auki,SB,-8.7676,160.7034,76.86,89,50,1.74,scattered clouds
585,Eregli,TR,37.5133,34.0467,66.11,45,80,7.85,broken clouds
586,Coari,BR,-4.085,-63.1414,85.66,72,63,3.69,broken clouds
587,Porto Novo,BJ,6.4965,2.6036,84.83,70,88,10.11,overcast clouds
588,Sukumo,JP,32.9333,132.7333,56.66,78,41,6.91,scattered clouds
589,Inuvik,CA,68.3499,-133.7218,25.54,84,94,11.41,overcast clouds
590,Alenquer,BR,-1.9417,-54.7383,84.96,73,60,6.29,broken clouds
591,Nkhotakota,MW,-12.9274,34.2961,70.23,65,1,2.3,clear sky
592,Ulaangom,MN,49.9811,92.0667,54.99,21,0,0.27,clear sky
593,Kattivakkam,IN,13.2167,80.3167,85.06,82,97,20.11,overcast clouds
594,Bow Island,CA,49.8668,-111.3684,53.47,50,11,11.52,few clouds
595,Hibbing,US,47.4272,-92.9377,67.51,42,40,10.36,scattered clouds
596,Adeje,ES,28.1227,-16.726,76.01,64,100,5.75,overcast clouds
597,Aksarka,RU,66.5606,67.7975,40.55,99,99,11.63,light rain
598,Gat,IL,31.61,34.7642,89.4,43,100,4.32,overcast clouds
599,Puerto Escondido,MX,15.85,-97.0667,90.43,66,0,8.05,clear sky
600,Terrace Bay,CA,48.7834,-87.1,51.24,81,96,5.64,overcast clouds
601,Luohe,CN,33.5717,114.0353,56.84,57,100,7.14,overcast clouds
602,Mancora,PE,-4.1078,-81.0475,77.38,70,73,7.78,broken clouds
603,Mount Isa,AU,-20.7333,139.5,55.17,76,0,3.44,clear sky
604,Catalao,BR,-18.1658,-47.9464,83.91,34,32,9.75,scattered clouds
605,Honiara,SB,-9.4333,159.95,77.14,87,11,1.9,few clouds
606,Alta Floresta,BR,-9.8756,-56.0861,89.35,50,57,4.14,broken clouds
607,Brekstad,NO,63.687,9.6654,46.0,87,40,21.85,scattered clouds
608,Saint-Leu,RE,-21.15,55.2833,72.46,74,22,9.71,few clouds
609,Troy,US,42.6056,-83.1499,85.05,54,0,9.22,clear sky
610,Mozarlandia,BR,-14.7447,-50.5706,96.03,24,3,5.95,clear sky
611,Palmer,US,42.1584,-72.3287,84.47,53,75,4.61,broken clouds
612,Aktau,KZ,43.65,51.2,61.38,67,26,14.83,scattered clouds
613,Mikhaylovskoye,RU,51.8239,79.7172,63.46,64,100,5.44,overcast clouds
614,Dahra,DZ,36.2546,0.8519,79.86,40,53,6.91,broken clouds
615,Hurghada,EG,27.2574,33.8129,80.44,51,36,10.87,scattered clouds
616,Mundo Nuevo,MX,18.7,-95.5,84.9,58,1,7.27,clear sky
617,Yumen,CN,40.2833,97.2,51.82,25,91,8.48,overcast clouds
618,Abu Kamal,SY,34.4506,40.9171,85.44,15,79,7.25,broken clouds
619,Filadelfia,US,39.9523,-75.1638,71.01,93,100,5.75,light rain
620,Majene,ID,-3.5403,118.9707,78.48,86,100,4.76,overcast clouds
621,Zabid,YE,14.1951,43.3152,91.44,43,0,4.27,clear sky
622,Saint-Georges,GD,12.0564,-61.7485,85.68,70,20,26.46,few clouds
623,Saint-Francois,FR,46.4154,3.9054,76.44,41,0,5.75,clear sky
624,Wilmington,US,34.2257,-77.9447,81.0,78,20,10.36,light rain
625,Myitkyina,MM,25.3833,97.4,73.63,99,97,2.39,overcast clouds
626,Lokoja,NG,7.8024,6.743,92.95,43,90,7.96,overcast clouds
627,Santona,ES,43.4439,-3.4576,67.32,85,100,9.95,light rain
628,Kysyl-Syr,RU,63.8986,122.7617,23.61,89,6,4.18,clear sky
629,Takoradi,GH,4.8845,-1.7554,82.58,78,90,8.5,light rain
630,Mezen,RU,65.8522,44.24,48.56,88,58,8.37,broken clouds
631,Forbes,AU,-33.3833,148.0167,64.92,94,76,1.28,broken clouds
632,Srednekolymsk,RU,67.45,153.6833,23.49,95,100,10.25,light snow
633,Grand Falls,CA,47.0461,-67.7418,78.46,49,95,5.21,overcast clouds
634,Prnjavor,BA,44.8703,17.6628,74.46,69,97,4.45,overcast clouds
635,Whitehorse,CA,60.7161,-135.0538,38.1,53,100,3.0,overcast clouds
636,Wahiawa,US,21.5028,-158.0236,72.37,79,0,3.44,clear sky
637,Umuarama,BR,-23.7664,-53.325,72.73,70,100,7.47,heavy intensity rain
638,Siyabuswa,ZA,-25.1132,29.0445,69.91,31,4,1.16,clear sky
639,Ahar,IR,38.4774,47.0699,58.69,34,2,5.93,clear sky
640,La Rioja,ES,42.25,-2.5,60.58,92,100,2.08,overcast clouds
641,High Level,CA,58.5169,-117.136,48.31,87,100,6.91,light rain
642,Kameno,BG,42.5667,27.3,70.09,56,55,8.05,broken clouds
643,Bodo,NO,67.28,14.405,48.65,86,75,21.85,broken clouds
644,Moyale,KE,3.5167,39.0584,68.43,69,63,4.18,broken clouds
645,Worthington,US,40.0931,-83.018,82.98,52,40,3.44,scattered clouds
646,Porangatu,BR,-13.4408,-49.1486,93.33,26,87,5.08,overcast clouds
647,Brownwood,US,31.7093,-98.9912,91.4,41,0,4.79,clear sky
648,Santo Antonio Do Ica,BR,-3.1022,-67.9397,85.1,75,86,3.4,moderate rain
649,Mogadishu,SO,2.0371,45.3438,81.19,80,69,15.01,broken clouds
650,Campbell River,CA,50.0163,-125.2446,48.6,90,100,4.27,overcast clouds
651,Coroneo,MX,20.1333,-100.3333,76.23,19,9,5.26,clear sky
652,Kuala Terengganu,MY,5.3302,103.1408,80.55,89,20,3.44,few clouds
653,Mawlaik,MM,23.6333,94.4167,76.5,92,34,1.86,scattered clouds
654,Saint-Joseph,RE,-21.3667,55.6167,71.98,77,41,12.75,scattered clouds
655,Joshimath,IN,30.5667,79.5667,66.45,66,73,5.26,broken clouds
656,Joinville,BR,-26.3044,-48.8456,76.1,64,100,4.72,overcast clouds
657,Altamira,BR,-3.2033,-52.2064,87.89,70,40,6.91,scattered clouds
658,Tessalit,ML,20.1986,1.0114,98.65,5,0,11.25,clear sky
659,Along,IN,28.1667,94.7667,69.84,99,100,1.72,overcast clouds
660,Port Hedland,AU,-20.3167,118.5667,69.85,88,2,6.91,clear sky
661,Saint-Denis,FR,48.9167,2.3333,75.34,41,0,5.75,clear sky
662,Veraval,IN,20.9,70.3667,83.64,79,0,13.53,clear sky
663,Labuhan,ID,-6.8844,112.2051,80.04,85,90,3.98,overcast clouds
664,Pho Chai,TH,16.3283,103.7703,87.82,66,79,5.66,broken clouds
665,Lokosovo,RU,61.1333,74.8167,57.34,78,100,8.05,overcast clouds
666,Marsh Harbour,BS,26.5412,-77.0636,78.46,78,21,14.32,few clouds
667,Mbekenyera,TZ,-10.0,38.9833,71.19,70,50,4.79,scattered clouds
668,Sabang,ID,5.8933,95.3214,83.82,75,100,3.15,overcast clouds
669,Kalianget,ID,-7.05,113.9333,82.85,77,100,6.31,overcast clouds
670,Santa Cruz Cabralia,BR,-16.2781,-39.0247,79.03,69,75,8.05,broken clouds
671,Pangkalanbuun,ID,-2.6833,111.6167,78.03,89,100,1.99,overcast clouds
672,Svetlaya,RU,46.5389,138.3297,43.81,72,100,7.58,overcast clouds
673,Mbandaka,CD,0.0487,18.2603,75.22,85,79,3.4,broken clouds
674,Florianopolis,BR,-27.6146,-48.5012,72.63,75,40,11.5,scattered clouds
675,Chara,RU,56.9064,118.2631,33.85,80,56,2.08,broken clouds
676,Kaabong,UG,3.4836,34.1492,70.66,60,53,10.22,broken clouds
677,Dahuk,IQ,36.8695,42.994,71.56,30,19,5.03,few clouds
678,Oranjemund,NA,-28.55,16.4333,57.15,77,0,16.62,clear sky
679,Cascais,PT,38.6979,-9.4215,71.51,71,20,15.01,few clouds
